"시도교육청","지역교육청","지역","정보공시 학교코드","학교명","학교급코드","설립구분","학교특성","분교여부","설립유형","주야구분","개교기념일","설립일","법정동코드","주소내역","상세주소내역","우편번호","학교도로명 우편번호","학교도로명 주소","학교도로명 상세주소","위도","경도","전화번호","팩스번호","홈페이지 주소","남녀공학 구분"
"서울특별시교육청","서울특별시교육청","서울특별시 노원구","S010000693","청암예술학교","08","사립","","N","단설","주간","19791005","19791005","1135010600","서울특별시 노원구 중계동","411-1번지.","139220","01713","서울특별시 노원구 중계로 244","(중계동,청암고등기술학교)","37.6517753205237","127.07386156911","02-930-6515","02-952-4772","ca-art.hs.kr","남녀공학"
"서울특별시교육청","서울특별시교육청","서울특별시 영등포구","S010005076","한국제과학교","08","사립","","N","단설","주간","19721229","19721229","1156013200","서울특별시 영등포구 신길동","10-40번지.","150051","07319","서울특별시 영등포구 여의대방로61길 42","(신길동)","37.515964192702","126.922037514728","02-843-6042","02-848-5766","http://www.kib.or.kr","남녀공학"
"서울특별시교육청","서울특별시강남서초교육지원청","서울특별시 강남구","S000003542","국립국악중학교","09","국립","","N","단설","주간","19910909","20020901","1168010300","서울특별시 강남구 개포동","1272번지.","135962","06311","서울특별시 강남구 개포로22길 65",", 국립국악중고등학교 (개포동)","37.4","127.0","02-3460-0500","02-579-6013","http://gugak.sen.ms.kr","남녀공학"
"서울특별시교육청","서울특별시남부교육지원청","서울특별시 금천구","S000005402","국립전통예술중학교","09","국립","","N","단설","주간","19600513","19600310","1154510300","서울특별시 금천구 시흥동","산24-17.","08650","08650","서울특별시 금천구 시흥대로38길 62","(시흥동)","37.445417","126.906550","02-896-1094","02-896-2044","http://kugak-am.sen.ms.kr","남녀공학"
"서울특별시교육청","서울특별시성동광진교육지원청","서울특별시 광진구","S010000627","선화예술중학교","09","사립","","N","단설","주간","19730705","19731201","1121510200","서울특별시 광진구 능동","25.","143847","04991","서울특별시 광진구 천호대로 664",", 선화예술중고등학교 (능동)","37.550645","127.087459","02-2204-1100","02-453-4641","https://sunhwaarts.sen.ms.kr","남녀공학"
"서울특별시교육청","서울특별시중부교육지원청","서울특별시 중구","S010000687","예원학교","09","사립","","N","단설","주간","19670527","19690910","1114016700","서울특별시 중구 정동","1-45번지.","100120","04518","서울특별시 중구 정동길 25","(정동)","37.5670227244015","126.971543815748","02-727-9000","02-727-9099","yewon.sen.ms.kr","남녀공학"
"서울특별시교육청","서울특별시북부교육지원청","서울특별시 노원구","S010000695","한국삼육중학교","09","사립","","N","단설","주간","20020101","19651217","1135010300","서울특별시 노원구 공릉동","26-38번지.","139242","01795","서울특별시 노원구 화랑로 815",", 한국삼육중학교 (공릉동)","37.6433582691137","127.108851364256","02-6959-1345","02-971-3643","36.sen.ms.kr","남녀공학"
"서울특별시교육청","서울특별시교육청","서울특별시 관악구","S010000675","서울산업정보학교","10","공립","","N","단설","주간","19831002","19830302","1162010200","서울특별시 관악구 신림동","228번지.","151858","08815","서울특별시 관악구 신림로 67",", 서울산업정보학교 (신림동)","37.4705036294174","126.941940003709","02-6331-1900","02-874-0535","http://sis.sen.sc.kr","남녀공학"
"서울특별시교육청","서울특별시교육청","서울특별시 마포구","S010000685","아현산업정보학교","10","공립","","N","단설","주간","19540806","19540806","1144010100","서울특별시 마포구 아현동","267-1번지.","04117","04117","서울특별시 마포구 마포대로 249","(아현동, 아현산업정보학교, 아현직업학교)","37.5570248364302","126.958020853763","02-390-5800","02-313-7606","http://ahyeon.sen.sc.kr","남녀공학"
"서울특별시교육청","서울특별시교육청","서울특별시 종로구","S010000690","종로산업정보학교","10","공립","","N","단설","주간","19901110","19901110","1111017500","서울특별시 종로구 숭인동","242번지.","110826","03114","서울특별시 종로구 종로58길 28","(숭인동, 종로산업정보학교)","37.5725714305439","127.017188176574","02-2237-0465","02-2238-0598","http://jongno.sen.hs.kr","남녀공학"
"서울특별시교육청","서울특별시교육청","서울특별시 중구","S010005586","서울실용음악고등학교","10","사립","","N","단설","주간","20090301","20090301","1114016200","서울특별시 중구 신당동","67-24.","","04578","서울특별시 중구 퇴계로88가길 8","(신당동,서울실용음악고등학교)","37.563335","127.020618","02-2231-5210","02-2231-2543","http://www.seoulmusic.hs.kr","남녀공학"
"서울특별시교육청","서울특별시교육청","서울특별시 중구","S010005730","여명학교","10","사립","","N","단설","주간","20100405","20100322","1114012900","서울특별시 중구 남산동2가","49-25.","100042","04630","서울특별시 중구 소파로 99",", 여명학교 (남산동2가)","37.5569016695613","126.985536163678","02-888-1673","02-888-1676","http://ymschool.org","남녀공학"
"서울특별시교육청","서울특별시교육청","서울특별시 종로구","S010005841","서울다솜관광고등학교","10","공립","","N","단설","주간","20120301","20120301","1111017500","서울특별시 종로구 숭인동","1-1.","110550","03114","서울특별시 종로구 종로58길 30","(숭인동)","37.571838","127.018162","070-8685-7798","02-2556-2261","http://sds.sen.hs.kr","남녀공학"
"서울특별시교육청","서울특별시교육청","서울특별시 서초구","S010006026","서초문화예술정보학교","10","공립","","N","단설","주간","20140415","20140101","1165010800","서울특별시 서초구 서초동",".","137072","06728","서울특별시 서초구 남부순환로347길 69","(서초동)","37.4878748716058","127.02944377672","02-3488-5200","02-3486-6276","http://seocho.sen.sc.kr","남녀공학"
"서울특별시교육청","서울특별시교육청","서울특별시 은평구","S010006027","은평문화예술정보학교","10","공립","","N","단설","주간","20140301","20140301","1138010700","서울특별시 은평구 응암동","334-12, 은평문화예술정보학교.","122010","03470","서울특별시 은평구 가좌로 208",", 은평문화예술정보학교 (응암동)","37.5891738498822","126.919320824126","02-3152-5700","02-3152-5740","http://ep.sen.sc.kr","남녀공학"
"서울특별시교육청","서울특별시교육청","서울특별시 종로구","S010006333","오디세이학교","10","공립","일반고등학교","N","단설","주간","20150526","20150526","1111017500","서울특별시 종로구 숭인동",".","","03114","서울특별시 종로구 종로58길 30","(숭인동)","37.572118","127.018170","02-2256-4120","02-2256-6741","http://odyssey.hs.kr","남녀공학"
"서울특별시교육청","서울특별시교육청","서울특별시 금천구","S010006380","금천문화예술정보학교","10","공립","일반고등학교","N","단설","주간","20170504","20170301","1154510200","서울특별시 금천구 독산동",".","153820","08548","서울특별시 금천구 남부순환로126길 25",", 금천문화예술정보학교 (독산동)","37.5","126.9","02-2039-9910","02-2039-9872","http://geumcheon.sen.sc.kr","남녀공학"
"서울특별시교육청","서울특별시교육청","서울특별시 성북구","S010002501","경동고등학교부설방송통신고등학교","11","공립","일반고등학교","N","병설","주간","20020101","19741231","1129011300","서울특별시 성북구 삼선동3가","50번지.","136043","02870","서울특별시 성북구 보문로29길 49","(삼선동3가, 경동고등학교)","37.5866018708909","127.016032024187","02-928-2077","02-926-7525","http://kyungdong.cyber.hs.kr","남녀공학"
"서울특별시교육청","서울특별시교육청","서울특별시 종로구","S010002502","경복고등학교부설방송통신고등학교","11","공립","일반고등학교","N","부설","주간","19740323","19740323","1111010100","서울특별시 종로구 청운동","89-9번지.","110030","03047","서울특별시 종로구 자하문로28가길 9","(청운동)","37.5859472024404","126.971509440639","02-397-5470","02-736-0422","http://www.cyber.hs.kr/user/index.do","남녀공학"
"서울특별시교육청","서울특별시교육청","서울특별시 동작구","S010002503","수도여자고등학교부설방송통신고등학교","11","공립","일반고등학교","N","부설","주간","20020101","19740223","1159010900","서울특별시 동작구 신대방동","470-13번지.","156850","07062","서울특별시 동작구 여의대방로10길 73","(신대방동, 수도여자고등학교)","37.493135","126.915822","02-2102-3580","02-2102-3547","http://sudo.uriban.com","녀"
"서울특별시교육청","서울특별시교육청","서울특별시 동작구","S010002504","영등포고등학교부설방송통신고등학교","11","공립","일반고등학교","N","부설","주간","20020101","19790110","1159010800","서울특별시 동작구 대방동","13-2.","156807","06933","서울특별시 동작구 등용로8길 5",", 대방동 13-2 (대방동, 영등포고등학교부설방송통신고등학교)","37.508917","126.934127","070-4675-3200","02-812-1315","http://www.cyber.hs.kr/achs/ydp/","남녀공학"
"서울특별시교육청","서울특별시교육청","서울특별시 강남구","S010002525","경기여자고등학교부설방송통신고등학교","11","공립","일반고등학교","N","부설","주간","20020101","19740301","1168010300","서울특별시 강남구 개포동","152번지.","135800","06324","서울특별시 강남구 삼성로 29","(개포동,경기여자고등학교)","37.5651","126.98955","02-573-6796","02-575-1157","http://www.kgg.hs.kr","녀"
"서울특별시교육청","서울특별시남부교육지원청","서울특별시 구로구","S010005864","지구촌학교","19","사립","","N","단설","주간","20111115","20110302","1153010800","서울특별시 구로구 오류동","223-5.","152102","08358","서울특별시 구로구 오리로 1189","(오류동)","37.4888591930499","126.835176065272","02-6910-1004","02-6910-1093","https://globalsarang.sen.sc.kr","남녀공학"
"서울특별시교육청","서울특별시서부교육지원청","서울특별시 마포구","S010006282","아현중학교부설방송통신중학교","25","공립","","N","부설","주간","20150314","20150301","1144010100","서울특별시 마포구 아현동",".","121859","04117","서울특별시 마포구 마포대로 247",", 아현중학교 내 아현방송통신중학교 (아현동)","37.556216","126.957062","02-363-1830","365-7921","http://ahyeon.ms.kr","남녀공학"
"부산광역시교육청","부산광역시교육청","부산광역시 동구","S020000436","부산국제영화고등학교","08","사립","특성화고등학교","N","단설","주간","19560502","19560502","2617010100","부산광역시 동구 초량동","부산국제영화고등학교.","601013","48792","부산광역시 동구 고관로 68","(초량동,부산국제영화고등학교)","35.1249836322713","129.044286051941","051-468-7940","051-462-1917","http://bifh.hs.kr","남녀공학"
"부산광역시교육청","부산광역시북부교육지원청","부산광역시 강서구","S020002292","송정중학교","09","공립","","N","단설","주간","20190301","20190301","2644010900","부산광역시 강서구 송정동",".","","46731","부산광역시 강서구 가락대로 230-72","(송정동, 송정중학교)","35.106762","128.842515","051-979-6700","979-6767","http://busansongjeong.ms.kr","남녀공학"
"부산광역시교육청","부산광역시교육청","부산광역시 사상구","S020000451","부산산업학교","10","공립","특성화고등학교","N","단설","주간","19910510","19910301","2653010300","부산광역시 사상구 덕포동","775-1.","617810","46941","부산광역시 사상구 백양대로768번길 64","(덕포동, 부산산업학교)","35.1739993784663","128.990443123597","051-309-8114","051-309-8110","http://www.sanup.hs.kr","남녀공학"
"부산광역시교육청","부산광역시교육청","부산광역시 동구","S020000347","경남여자고등학교부설방송통신고등학교","11","공립","일반고등학교","N","부설","주간","19740323","19740323","2617010200","부산광역시 동구 수정동","558번호.","601816","48777","부산광역시 동구 수정중로 29",", 경남여자고등학교 (수정동, 경남여자고등학교)","35.132291","129.043852","051-600-0803","051-467-2959","","녀"
"부산광역시교육청","부산광역시교육청","부산광역시 동래구","S020000395","동래고등학교부설방송통신고등학교","11","공립","일반고등학교","N","부설","주간","19820301","19820301","2626010300","부산광역시 동래구 칠산동","360번지.","607030","47812","부산광역시 동래구 충렬대로285번길 22","(칠산동,동래고등학교)","35.2012829053288","129.091785544735","051-550-7790","051-558-0663","","남녀공학"
"부산광역시교육청","부산광역시북부교육지원청","부산광역시 북구","S020002245","화명중학교부설방송통신중학교","25","공립","","N","부설","주간","20160306","20160301","2632010200","부산광역시 북구 화명동",".","","46538","부산광역시 북구 금곡대로186번길 13","(화명동)","35.226324","129.011386","051-366-3536","031-366-3534","http://www.hwamyong.ms.kr","남녀공학"
"대구광역시교육청","대구광역시교육청","대구광역시 달서구","S030001639","경북기계공업고등학교부설대구문화예술산업학교","10","공립","특성화고등학교","N","부설","주간","19910308","19900918","2729011500","대구광역시 달서구 상인동","1번지.","704370","42748","대구광역시 달서구 월배로 275","(상인동,경북기계공업고등학교)","35.822436","128.541023","053-231-3832","053-231-3859","http://www.dgsanup.hs.kr","남녀공학"
"대구광역시교육청","대구광역시교육청","대구광역시 달서구","S030002092","대구예담학교","10","공립","일반고등학교","N","단설","주간","20170609","20170301","2729011400","대구광역시 달서구 본리동",".","","42683","대구광역시 달서구 구마로21길 36",", 예담학교 (본리동)","35.839555","128.539873","053-231-9820","053-526-8603","http://www.dgyedam.sc.kr","남녀공학"
"대구광역시교육청","대구광역시교육청","대구광역시 남구","S030000285","대구고등학교부설방송통신고등학교","11","공립","일반고등학교","N","부설","주간","19741231","19741231","2720010300","대구광역시 남구 대명동","187.","705802","42416","대구광역시 남구 중앙대로 171","(대명동, 대구고등학교)","35.8491081526933","128.588734796661","053-231-4158","053-656-7949","http://www.cyber.hs.kr","남녀공학"
"대구광역시교육청","대구광역시남부교육지원청","대구광역시 남구","S030002006","경상중학교부설방송통신중학교","25","공립","","N","부설","주간","20130301","20130301","2720010300","대구광역시 남구 대명동","1819-11.","705030","42412","대구광역시 남구 현충로48길 33","(대명동, 경상중학교)","35.8491081526933","128.588734796661","053-0000-0000","053-0000-0000","www.cyber.ms.kr","남녀공학"
"인천광역시교육청","인천광역시교육청","인천광역시 남구","S040001382","한진고등기술학교","08","사립","","N","단설","주간","19650123","19650123","2817010500","인천광역시 남구 도화동","66-36.","402060","22113","인천광역시 남구 장고개로 69","(도화동)","37.4741941242257","126.668571928532","032-864-6340","032-867-8778","","남녀공학"
"인천광역시교육청","인천광역시교육청","인천광역시 동구","S040000307","인천산업정보학교","10","공립","","N","단설","주간","19940301","19940301","2814010600","인천광역시 동구 금곡동","45-1번지.","401060","22564","인천광역시 동구 금창로 31","(금곡동)","37.471847","126.640863","032-765-5471","032-765-5473","http://sanup.icesc.kr","남녀공학"
"인천광역시교육청","인천광역시교육청","인천광역시 남동구","S040002166","인천한누리학교","10","공립","","N","단설","주간","20130301","20130301","2820011000","인천광역시 남동구 논현동","640-2.","405825","21655","인천광역시 남동구 논현고잔로 215","(논현동)","37.401356902456","126.715862795181","032-627-2250","032-442-2107","http://hannuri.icesc.kr","남녀공학"
"인천광역시교육청","인천광역시교육청","인천광역시 남동구","S040002179","인천해밀학교","10","공립","","N","단설","주간","20120301","20120301","2820010100","인천광역시 남동구 구월동","1089.","405220","21553","인천광역시 남동구 문화로169번길 73","(구월동)","37.4550266139035","126.696260877952","032-432-7155","032-432-7159","http://haemil.icesc.kr/","남녀공학"
"인천광역시교육청","인천광역시교육청","인천광역시 연수구","S040002181","인천청담고등학교","10","사립","","N","단설","주간","20110506","20110506","2818510500","인천광역시 연수구 동춘동","산 29-6번지 .","406130","21980","인천광역시 연수구 앵고개로 132","(동춘동)","37.412419","126.6605595","032-833-2014","032-831-2014","http://cheongdam.icehs.kr","남녀공학"
"인천광역시교육청","인천광역시교육청","인천광역시 연수구","S040000270","인천여자고등학교부설방송통신고등학교","11","공립","일반고등학교","N","부속","주간","19760119","19760119","2818510300","인천광역시 연수구 연수동","534-3.","406113","21936","인천광역시 연수구 비류대로506번길 14","(연수동)","37.422429509107","126.689903459266","032-810-6300","032-810-6399","http://incheon-gh.icehs.kr","녀"
"인천광역시교육청","인천광역시교육청","인천광역시 중구","S040000290","제물포고등학교부설방송통신고등학교","11","공립","일반고등학교","N","부설","주간","19750316","19750316","2811013700","인천광역시 중구 전동","26번지.","400190","22310","인천광역시 중구 자유공원로 58-9","(전동)","37.476832","126.623838","032-770-4741","032-770-4743","http://www.cyber.hs.kr","남녀공학"
"인천광역시교육청","인천광역시동부교육지원청","인천광역시 남동구","S040002270","구월여자중학교부설방송통신중학교","25","공립","","N","부설","주간","20160305","20160305","2820010100","인천광역시 남동구 구월동",".","","21570","인천광역시 남동구 성말로13번길 78","(구월동, 구월여자중학교부설방송통신중학교)","37.449208","126.703260","032-433-4005","032-435-0465","http://gwg.icems.kr/main.do","남녀공학"
"광주광역시교육청","광주광역시교육청","광주광역시 북구","S050000644","금호미용예술학교","08","사립","","N","단설","주야간","19570520","19570226","2917010900","광주광역시 북구 운암동","산 157번지.","500170","61269","광주광역시 북구 동운로 167-5",", 금호미용예술학교 (운암동)","351741377","1268595246","062-523-8237","062-523-9128","http://www.kumho-art.com","남녀공학"
"광주광역시교육청","광주광역시서부교육지원청","광주광역시 남구","S050001099","호남삼육중학교","09","사립","","N","단설","주간","19530420","19530420","2915510600","광주광역시 남구 주월동","468-2.","503311","61731","광주광역시 남구 회서로 30",", 호남삼육중학교 (주월동)","35.129674","126.893575","062-720-3636","062-720-3697","http://samyook.gen.ms.kr","남녀공학"
"광주광역시교육청","광주광역시교육청","광주광역시 동구","S050000095","광주고등학교부설방송통신고등학교","11","공립","일반고등학교","N","부설","주간","19510928","19510928","2911010900","광주광역시 동구 계림동","239-1.","501800","61412","광주광역시 동구 중앙로 302",", (계림동, 광주고등학교) (계림동)","35.1593038","126.9218437","062-239-8809","062-239-0100","","남"
"광주광역시교육청","광주광역시교육청","광주광역시 동구","S050000162","전남여자고등학교부설방송통신고등학교","11","공립","일반고등학교","N","부설","주간","19741231","19741231","2911010700","광주광역시 동구 장동","39~12.","501060","61431","광주광역시 동구 제봉로158번길 8",", (장동, 전남여자고등학교) (장동)","35.1516605","126.9202672","062-220-0307","062-226-9045","","녀"
"광주광역시교육청","광주광역시서부교육지원청","광주광역시 서구","S050001434","월광기독학교","19","사립","","N","단설","주간","20140301","20140301","2914011900","광주광역시 서구 화정동",".","","62025","광주광역시 서구 염화로 23-20",", 월광기독학교 (화정동)","35.1359295","126.871844","062-714-3000","062-714-3100","http://","남녀공학"
"광주광역시교육청","광주광역시동부교육지원청","광주광역시 북구","S050001412","광주북성중학교부설방송통신중학교","25","공립","","N","부설","주간","20130301","20130301","2917010200","광주광역시 북구 유동","81-1.","500020","61246","광주광역시 북구 금남로 61",", (유동, 광주북성중학교) (유동)","35.159199","126.902688","062-607-7000","062-511-4612","http://buksung.gen.ms.kr","남녀공학"
"대전광역시교육청","대전광역시서부교육지원청","대전광역시 서구","S060001323","새소리음악중학교","09","사립","","N","단설","주간","20170301","20170301","3017010300","대전광역시 서구 도마동",".","","35328","대전광역시 서구 변동중로 24-2","(도마동)","36.3272","127.3727915","042-533-6470","042-537-4200","http://sesorymusic.ms.kr","남녀공학"
"대전광역시교육청","대전광역시교육청","대전광역시 서구","S060000154","대전산업정보고등학교","10","공립","","N","단설","주간","19910301","19910301","3017010500","대전광역시 서구 용문동","284-1.","302845","35306","대전광역시 서구 괴정로 191","(용문동)","36.3330569","127.392542","042-250-0099","042-537-8683","dpsc.djsch.kr","남녀공학"
"대전광역시교육청","대전광역시교육청","대전광역시 서구","S060001253","새소리음악고등학교","10","사립","","N","단설","주간","20120302","20120302","3017010300","대전광역시 서구 도마동","16-16.","302819","35328","대전광역시 서구 변동중로 24-2","(도마동)","36.3272","127.3727915","042-533-6478","042-537-4200","http://sesory.djsch.kr","남녀공학"
"대전광역시교육청","대전광역시교육청","대전광역시 중구","S060000175","대전고등학교부설방송통신고등학교","11","공립","일반고등학교","N","부속","주간","19750406","19750406","3014010500","대전광역시 중구 대흥동","320-2.","301805","34932","대전광역시 중구 대흥로 110","(대흥동,대전고등학교)","36.322367","127.424413","042-220-6264","042-220-6130","http://www.cyber.hs.kr/","남"
"대전광역시교육청","대전광역시교육청","대전광역시 동구","S060000195","대전여자고등학교부설방송통신고등학교","11","공립","일반고등학교","N","부설","주간","19741231","19741231","3011011000","대전광역시 동구 대동","16-2.","300072","34656","대전광역시 동구 용운로1번길 28-37","(대동, 대전여자고등학교)","36.329917","127.4468","042-630-5901","042-633-8846","http://www.cyber.hs.kr/achs/daejeon-g","녀"
"대전광역시교육청","대전광역시서부교육지원청","대전광역시 유성구","S060001293","대전봉명중학교부설방송통신중학교","25","공립","","N","부설","주간","20140309","20140301","3020011100","대전광역시 유성구 봉명동","274-10.","305301","34189","대전광역시 유성구 계룡로132번길 71","(봉명동, 대전봉명중학교)","36.3498495","127.344869","0428266872","0428266878","cyber.ms.kr","남녀공학"
"울산광역시교육청","울산광역시강남교육지원청","울산광역시 울주군","S070000760","울산고운중학교","09","공립","","N","단설","주간","20210301","20210301","3171037021","울산광역시 울주군 두서면 차리",".","","44913","울산광역시 울주군 두서면 구량차리로 16",", 울산고운중학교","35.617933","129.146937","2632190","2632193","","남녀공학"
"울산광역시교육청","울산광역시교육청","울산광역시 남구","S070000118","학성고등학교부설방송통신고등학교","11","공립","일반고등학교","N","부설","주간","19830724","19830724","3114010400","울산광역시 남구 신정동","1674번지.","680832","44666","울산광역시 남구 문수로 436","(신정동, 학성고등학교)","35.531633","129.300475","052-257-2077","052-257-2079","http://www.cyber.hs.kr","남녀공학"
"울산광역시교육청","울산광역시교육청","울산광역시 남구","S070000743","학성고등학교부설방송통신중학교","25","공립","","N","부설","주간","20160313","20160301","3114010200","울산광역시 남구 옥동",".","","44666","울산광역시 남구 문수로 436",", 학성고등학교부설방송통신중학교 (신정동)","35.531319","129.300351","257-2074","052-257-2058","http://www.cyber.ms.kr","남녀공학"
"경기도교육청","경기도광주하남교육지원청","경기도 하남시","S090004463","동성고등공민학교","07","사립","","N","단설","주간","19670302","19670302","4145012400","경기도 하남시 광암동","산63번지.","465230","12994","경기도 하남시 광암로148번길 67","(광암동)","37.5123796","127.1723488","02-485-0103","02-485-0737","www.idongsung.org","남녀공학"
"경기도교육청","경기도구리남양주교육지원청","경기도 구리시","S090004471","서울삼육중학교","09","사립","","N","단설","주간","19470901","19470901","4131010400","경기도 구리시 교문동","산 90번지.","471020","11952","경기도 구리시 아차산로487번길 70",", 서울삼육중학교 (교문동)","37.595747","127.124861","070-8640-8401","031-569-7672","http://sahmyook.ms.kr","남녀공학"
"경기도교육청","경기도고양교육지원청","경기도 고양시 덕양구","S090005829","티엘비유글로벌학교(중)","09","사립","","N","단설","주간","20080319","20080205","4128111900","경기도 고양시 덕양구 내유동","300-9.","412520","10264","경기도 고양시 덕양구 내유길 231",", 티엘비유글로벌학교","37.725996","126.867106","031-960-1170","031-960-1150","http://tlbugs.ac.kr","남녀공학"
"경기도교육청","경기도성남교육지원청","경기도 성남시 분당구","S090006508","계원예술중학교","09","사립","","N","단설","주간","20100301","20100301","4113510300","경기도 성남시 분당구 정자동","207번지.","463010","13606","경기도 성남시 분당구 불정로 100",", 계원예술학교 (정자동, 계원예술고등학교)","37.3586403","127.1158508","031-786-5920","031-710-8696","http://www.kaywon.ms.kr","남녀공학"
"경기도교육청","경기도동두천양주교육지원청","경기도 양주시","S090006641","쉐마기독학교(중)","09","사립","","N","단설","주간","20110407","20110407","4163031021","경기도 양주시 은현면 용암리","861번지.","11429","11429","경기도 양주시 은현면 화합로1080번길 184-16","(은현면)","37.8496882","127.0263223","031-858-3144","031-858-3143","http://ishema.org","남녀공학"
"경기도교육청","경기도교육청","경기도 이천시","S090006848","경기새울학교","09","공립","","N","단설","주간","20130601","20130301","4150038028","경기도 이천시 율면 오성리","550-5.","467891","17423","경기도 이천시 율면 금율로862번길 231-20",", 경기새울학교 (율면)","37.0721903","127.5499488","0316399910","031-943-9552","http://www.saeul.ms.kr","남녀공학"
"경기도교육청","경기도고양교육지원청","경기도 고양시 일산서구","S090007013","광성드림학교","09","사립","","N","단설","주간","20140306","20140228","4128710500","경기도 고양시 일산서구 덕이동","329-5 .","411808","10231","경기도 고양시 일산서구 하이파크로 161",", 광성드림학교","37.703901","126.757594","031-929-9545","031-929-9508","http://ksdream.or.kr/","남녀공학"
"경기도교육청","경기도성남교육지원청","경기도 성남시 수정구","S090007151","하늘꿈중고등학교(중)","09","사립","","N","단설","주간","20030310","20151113","4113110700","경기도 성남시 수정구 복정동",".","461200","13113","경기도 성남시 수정구 성남대로1518번길 11","(복정동)","37.465699","127.127739","031-758-2071","031-758-2079","http://www.hdschool.org","남녀공학"
"경기도교육청","경기도용인교육지원청","경기도 용인시 수지구","S090007393","중앙예닮학교(중)","09","사립","","N","단설","주간","20180312","20171123","4146510700","경기도 용인시 수지구 상현동",".","","16863","경기도 용인시 수지구 포은대로 91-19","(상현동, 중앙예닮학교)","37.303091","127.071168","031-217-1401","031-217-1402","http://ya.or.kr","남녀공학"
"경기도교육청","경기도가평교육지원청","경기도 가평군","S090007585","노비따스음악중고등학교(중)","09","사립","","N","단설","주간","20200301","20200301","4182031027","경기도 가평군 설악면 위곡리",".","","12463","경기도 가평군 설악면 한서로210번길 325","(설악면)","37.649268","127.516449","070-8953-1009","070-8953-8953","http://www.novitas.kr","녀"
"경기도교육청","경기도시흥교육지원청","경기도 시흥시","S090007647","군서미래국제학교","09","공립","","N","단설","주간","20210301","20210301","4139013200","경기도 시흥시 정왕동",".","","15056","경기도 시흥시 봉우재로37번길 5","(정왕동, 군서중학교)","37.346064","126.743651","070-7097-1715","0315005298","http://gfis.sc.kr/","남녀공학"
"경기도교육청","경기도교육청","경기도 연천군","S090006636","화요일아침예술학교","10","사립","일반고등학교","N","단설","주간","20110302","20110201","4180025326","경기도 연천군 전곡읍 양원리","764.","11040","11040","경기도 연천군 전곡읍 양원로268번길 106-125","(전곡읍)","37.9665452","1270211632","070-8891-3830","031-833-0090","www.flowerdaymorning.com","녀"
"경기도교육청","경기도교육청","경기도 양주시","S090006642","쉐마기독학교(고)","10","사립","일반고등학교","N","단설","주간","20110301","20110301","4163031021","경기도 양주시 은현면 용암리","861.","11429","11429","경기도 양주시 은현면 화합로1080번길 184-16","(은현면)","37.84952","127.026507","031-858-3144","031-858-3143","http://ishema.org","남녀공학"
"경기도교육청","경기도교육청","경기도 성남시 수정구","S090007150","하늘꿈중고등학교","10","사립","일반고등학교","N","단설","주간","20030310","20151113","4113110700","경기도 성남시 수정구 복정동",".","","13113","경기도 성남시 수정구 성남대로1518번길 11","(복정동)","37.465699","127.127739","031-758-2071","031-758-2079","http://www.hdschool.org","남녀공학"
"경기도교육청","경기도교육청","경기도 용인시 수지구","S090007392","중앙예닮학교","10","사립","일반고등학교","N","단설","주간","20180312","20171123","4146510700","경기도 용인시 수지구 상현동",".","","16863","경기도 용인시 수지구 포은대로 91-19","(상현동, 중앙예닮학교)","37.302218","127.070480","031-217-1401","031-217-1402","http://ya.or.kr","남녀공학"
"경기도교육청","경기도교육청","경기도 고양시 일산서구","S090007587","광성드림학교(고)","10","사립","","N","단설","주간","20140306","20140228","4128710500","경기도 고양시 일산서구 덕이동",".","","10231","경기도 고양시 일산서구 하이파크로 161","(덕이동, 거룩한빛 광성교회 교육관)","37.703901","126.757594","031-929-9500","031-929-9508","http://ksdream.or.kr","남녀공학"
"경기도교육청","경기도교육청","경기도 수원시 장안구","S090000642","수성고등학교부설방송통신고등학교","11","공립","일반고등학교","N","부설","주간","19750406","19741231","4111113000","경기도 수원시 장안구 정자동","49.","440832","16313","경기도 수원시 장안구 장안로90번길 39","(정자동, 수성고등학교)","37.2936437","127.0026279","031-259-1320","031-252-8768","http://www.cyber.hs.kr","남녀공학"
"경기도교육청","경기도교육청","경기도 수원시 팔달구","S090000650","수원여자고등학교부설방송통신고등학교","11","공립","일반고등학교","N","부설","주간","19750106","19750106","4111513700","경기도 수원시 팔달구 고등동","19-1.","442880","16448","경기도 수원시 팔달구 고등로59번길 72","(고등동, 수원여자고등학교)","37.276222","127.003517","031-245-1503","031-241-5984","http://suwon-g.hs.kr/","녀"
"경기도교육청","경기도교육청","경기도 의정부시","S090005822","호원고등학교부설방송통신고등학교","11","공립","일반고등학교","N","부설","주간","20080301","20080301","4115010200","경기도 의정부시 호원동","226-154.","480854","11646","경기도 의정부시 망월로 56","(호원동, 호원고등학교)","37.704858","127.044584","031-822-2124","031-822-2020","http://","남녀공학"
"경기도교육청","경기도교육청","경기도 성남시 분당구","S090006964","서현고등학교부설방송통신고등학교","11","공립","일반고등학교","N","부설","주간","20140316","20140301","4113510500","경기도 성남시 분당구 서현동",".","","13588","경기도 성남시 분당구 분당로 87",", 서현고등학교부설방송통신고등학교 (서현동)","37.3817863","127.12355","031-789-5326","031-702-8412","http://www.seohyun.hs.kr/","남녀공학"
"경기도교육청","경기도교육청","경기도 부천시","S090006965","상동고등학교부설방송통신고등학교","11","공립","일반고등학교","N","부설","주간","20140316","20140301","4119010900","경기도 부천시 상동","620-1 .","420030","14594","경기도 부천시 원미구 상이로 22","(상동)","37.4910295","126.7449762","032-220-5009","032-328-7455","http://cyber.hs.kr/","남녀공학"
"경기도교육청","경기도고양교육지원청","경기도 고양시 덕양구","S090005830","티엘비유글로벌학교(초)","19","사립","","N","단설","주간","20080319","20080205","4128111900","경기도 고양시 덕양구 내유동","300-9.","412520","10264","경기도 고양시 덕양구 내유길 231",", 구번지 300-9 (내유동, 티엘비유글로벌학교)","37.7259831","126.867114","031-960-1171","031-960-1150","http://tlbugs.ac.kr","남녀공학"
"경기도교육청","경기도동두천양주교육지원청","경기도 양주시","S090006637","쉐마기독학교(초)","19","사립","","N","단설","주간","20110301","20110301","4163031021","경기도 양주시 은현면 용암리","861.","11429","11429","경기도 양주시 은현면 화합로1080번길 184-16","(은현면)","37.84952","127.026507","031-858-3144","031-858-3143","http://ishema.org","남녀공학"
"경기도교육청","경기도고양교육지원청","경기도 고양시 일산서구","S090007017","광성드림학교(초)","19","사립","","N","단설","주간","20140313","20140228","4128710500","경기도 고양시 일산서구 덕이동",".","","10231","경기도 고양시 일산서구 하이파크로 161","(덕이동, 거룩한빛 광성교회 교육관)","37.7038531","126.7573847","031-929-9500","031-929-9508","http://ksdream.or.kr","남녀공학"
"경기도교육청","경기도의정부교육지원청","경기도 의정부시","S090006968","호원중학교부설방송통신중학교","25","공립","","N","부설","주간","20140301","20140301","4115010200","경기도 의정부시 호원동",".","","11639","경기도 의정부시 호암로 205","(호원동)","37.7","127.0","031-829-0742","031-829-0744","http://","남녀공학"
"경기도교육청","경기도수원교육지원청","경기도 수원시 팔달구","S090006969","수원제일중학교부설방송통신중학교","25","공립","","N","부설","주간","20140301","20140301","4111513800","경기도 수원시 팔달구 화서동",".","","16434","경기도 수원시 팔달구 수성로244번길 37-52","(화서동, 제일중학교)","37.2871384","127.0007732","031-255-2084","031-247-3892","http://","남녀공학"
"경기도교육청","경기도광명교육지원청","경기도 광명시","S090007165","광명중학교부설방송통신중학교","25","공립","","N","부설","주간","20160301","20160301","4121010200","경기도 광명시 철산동",".","","14234","경기도 광명시 오리로876번길 27","(철산동)","37.4780952","126.8672472","02-2684-3669","02-2616-9171","http://www.km.ms.kr","남녀공학"
"경기도교육청","경기도성남교육지원청","경기도 성남시 분당구","S090007166","삼평중학교부설방송통신중학교","25","공립","","N","부설","주간","20160301","20160301","4113510900","경기도 성남시 분당구 삼평동",".","","13492","경기도 성남시 분당구 대왕판교로644번길 77","(삼평동)","37.400622","127.115349","031-8016-1044","031-8016-1014","http://www.sampyung.ms.kr","남녀공학"
"강원도교육청","강원도홍천교육지원청","강원도 홍천군","S100003962","해밀학교","09","사립","","N","단설","주간","20180301","20180301","4272036029","강원도 홍천군 남면 용수리",".","","25105","강원도 홍천군 남면 남노일로 720-8","(남면, 해밀학교)","37.6303281","27.761487","070-4184-8761","0504-841-8761","http://haemillschool.gwe.ms.kr","남녀공학"
"강원도교육청","강원도교육청","강원도 동해시","S100000408","묵호고등학교부설방송통신고등학교","11","공립","일반고등학교","N","부설","주간","19811211","19811211","4217011000","강원도 동해시 부곡동","217 번지.","240030","240813","강원도 동해시 승지로 37","(부곡동,묵호고등학교)","37.5376955","129.0957802","033-535-7503","033-532-7501","","남녀공학"
"강원도교육청","강원도교육청","강원도 속초시","S100000445","설악고등학교부설방송통신고등학교","11","공립","일반고등학교","N","부속","주간","19870114","19870114","4221010800","강원도 속초시 조양동","589-7.","217811","24869","강원도 속초시 청대로 219","(조양동, 설악고등학교)","38.1853884","128.5735843","033-630-0300","033-630-0310","","남녀공학"
"강원도교육청","강원도교육청","강원도 원주시","S100000467","원주고등학교부설방송통신고등학교","11","공립","일반고등학교","N","부설","주간","19760318","19760318","4213010500","강원도 원주시 개운동","127-1 번지.","220110","26442","강원도 원주시 치악로 1765","(개운동, 원주고등학교)","37.3395635","127.9542056","033-740-9000","033-740-9029","","남녀공학"
"강원도교육청","강원도교육청","강원도 춘천시","S100000511","춘천고등학교부설방송통신고등학교","11","공립","일반고등학교","N","부설","주간","19741203","19741203","4211011500","강원도 춘천시 소양로3가","149-1 번지.","200113","24274","강원도 춘천시 중앙로68번길 37","(소양로3가,춘천고등학교)","37.8810529","127.7231703","033-240-2105","033-254-6703","http://www.cyber.hs.kr/achs/chunchon","남녀공학"
"강원도교육청","강원도교육청","강원도 춘천시","S100000518","춘천여자고등학교부설방송통신고등학교","11","공립","일반고등학교","N","부설","주간","19741231","19741231","4211031000","강원도 춘천시 동면","산 133-15.","200852","24213","강원도 춘천시 동면 만천양지길 95","(동면, 춘천여자고등학교)","37.8880295","127.7634089","033-256-5297","033-253-5295","","녀"
"강원도교육청","강원도교육청","강원도 태백시","S100000540","황지고등학교부설방송통신고등학교","11","공립","일반고등학교","N","부설","주간","19760301","19760301","4219010100","강원도 태백시 황지동","232 번지.","235019","26033","강원도 태백시 번영로 179",", 황지고등학교 (황지동)","37.1604155","128.9845899","033-550-0770","033-550-0702","hwangji.gwe.hs.kr","남녀공학"
"강원도교육청","강원도교육청","강원도 강릉시","S100003159","강릉제일고등학교부설방송통신고등학교","11","공립","일반고등학교","N","부설","주간","19741231","19741231","4215011000","강원도 강릉시 교동","886번지.","210923","25504","강원도 강릉시 화부산로8번길 37","(교동)","37.7596936","128.8897774","033-650-0100","033-641-5119","","남녀공학"
"강원도교육청","강원도홍천교육지원청","강원도 홍천군","S100003974","노천초등학교","19","공립","","N","단설","주간","20190301","20190301","4272035030","강원도 홍천군 동면 노천리",".","","25155","강원도 홍천군 동면 공작산로 1220","(동면)","37.6","128.0","033-434-9712","033-434-9714","http://nocheon.gwe.es.kr","남녀공학"
"강원도교육청","강원도춘천교육지원청","강원도 춘천시","S100003917","남춘천중학교부설방송통신중학교","25","공립","","N","부속","주간","20150302","20150302","4211012100","강원도 춘천시 온의동",".","","24439","강원도 춘천시 충혼길 51",", 남춘천중학교부설방송통신중학교 (온의동, 남춘천중학교)","37.859624","127.721713","033-250-9500","033-250-9598","http://ncc.gwe.ms.kr","남녀공학"
"강원도교육청","강원도원주교육지원청","강원도 원주시","S100003920","원주중학교부설방송통신중학교","25","공립","","N","부속","주간","20150302","20150302","4213010700","강원도 원주시 단구동",".","","26445","강원도 원주시 치악로 1724",", 원주중학교부설방송통신중학교 (단구동, 원주중학교)","37.33714","127.958175","033-763-5172","033-763-5176","http://wjm.gwe.ms.kr","남녀공학"
"강원도교육청","강원도강릉교육지원청","강원도 강릉시","S100003921","강릉중학교부설방송통신중학교","25","공립","","N","부속","주간","20150301","20150301","4215012500","강원도 강릉시 입암동","3층 강릉중학교부설방송통신중학교 교무실.","210938","25582","강원도 강릉시 강중길44번길 8","(입암동, 강릉중학교)","37.7548165","128.9086397","033-650-6010","033-641-6395","http://www.kneung.ms.kr","남녀공학"
"충청북도교육청","충청북도교육청","충청북도 음성군","S110002077","글로벌선진학교(중)","09","사립","","N","단설","주간","20110301","20110301","4377032031","충청북도 음성군 원남면 조촌리","원중로 406-9.","369860","27727","충청북도 음성군 원남면 원중로 406-9","(원남면, 글로벌비전크리스찬스쿨)","36.876069","127.610007","043-871-7091","043-871-7099","http://www.gvcs-es.org","남녀공학"
"충청북도교육청","충청북도진천교육지원청","충청북도 진천군","S110002203","은여울중학교","09","공립","","N","단설","주간","20170306","20170301","4375033028","충청북도 진천군 문백면 은탄리",".","365863","27867","충청북도 진천군 문백면 농다리로 536-45",", 은여울중학교 (문백면)","36.63","127.49","043-530-5807","043-534-5834","http://school.cbe.go.kr/eyu-m","남녀공학"
"충청북도교육청","충청북도교육청","충청북도 청주시 상당구","S110002209","다다예술학교","09","사립","","N","단설","주간","20170301","20170301","4311131023","충청북도 청주시 상당구 낭성면 추정리",".","363862","28194","충청북도 청주시 상당구 낭성면 단재로 1794","(낭성면)","36.591113","127.611061","043-288-5161","043-258-5161","http://www.ddart.org","남녀공학"
"충청북도교육청","충청북도교육청","충청북도 음성군","S110002076","글로벌선진학교","10","사립","","N","단설","주간","20110301","20110301","4377032031","충청북도 음성군 원남면 조촌리",".","369862","27727","충청북도 음성군 원남면 원중로 406-9","(원남면)","36.876069","127.610007","043-871-7091","043-871-7099","http://www.gvcs-es.org","남녀공학"
"충청북도교육청","충청북도교육청","충청북도 제천시","S110002088","한국폴리텍다솜고등학교","10","사립","","N","단설","주간","20120302","20111130","4315012100","충청북도 제천시 강제동","145.","390160","27205","충청북도 제천시 원강저로 94","(강제동)","37.1125717","128.2199298","043-649-2800","043-649-2819","http://dasom.kopo.ac.kr","남녀공학"
"충청북도교육청","충청북도교육청","충청북도 진천군","S110002308","은여울고등학교","10","공립","일반고등학교","","단설","주간","20210301","20210301","4375033028","충청북도 진천군 문백면 은탄리",".","365863","27867","충청북도 진천군 문백면 농다리로 536-45","(문백면, 은여울고등학교)","36.79357","127.48612","043-530-5806","043-534-5834","http://school.cbe.go.kr/","남녀공학"
"충청북도교육청","충청북도교육청","충청북도 청주시 흥덕구","S110000213","청주고등학교부설방송통신고등학교","11","공립","일반고등학교","N","부설","주간","19750301","19750301","4311311400","충청북도 청주시 흥덕구 복대동","869번지.","361271","28573","충청북도 청주시 흥덕구 사직대로 79",", 청주고등학교 (복대동)","36.635779","127.455055","043-269-1235","043-269-1236","http://cyber.hs.kr/servlet/controller.ho","남녀공학"
"충청북도교육청","충청북도교육청","충청북도 충주시","S110000243","충주고등학교부설방송통신고등학교","11","공립","일반고등학교","N","부설","주간","19810216","19810216","4313010700","충청북도 충주시 호암동","558번지.","380130","27414","충청북도 충주시 예성로 37","(호암동, 충주고등학교)","36.9627133","127.9287837","043-840-6709","043-848-2888","","남녀공학"
"충청북도교육청","충청북도청주교육지원청","충청북도 청주시 상당구","S110002222","다다예술학교(초)","19","사립","","N","단설","주간","20170301","20170301","4311131023","충청북도 청주시 상당구 낭성면 추정리",".","","28194","충청북도 청주시 상당구 낭성면 단재로 1794",", 다다예술학교 (낭성면)","36.591113","127.611061","043-288-5161","043-258-5161","http://www.ddart.org","남녀공학"
"충청북도교육청","충청북도청주교육지원청","충청북도 청주시 청원구","S110002249","주성중학교부설방송통신중학교","25","공립","","N","부설","주간","20180301","20180301","4311410300","충청북도 청주시 청원구 율량동",".","","28319","충청북도 청주시 청원구 율량로 152",", 주성중학교부설방송통신중학교 (율량동)","36.669523127","498604","043-279-8212","043-257-3092","http://school.cbe.go.kr/jusung-m","남녀공학"
"충청남도교육청","충청남도교육청","충청남도 홍성군","S120001248","풀무농업고등기술학교","08","사립","특성화고등학교","N","단설","주간","19580423","19650123","4480033034","충청남도 홍성군 홍동면 팔괘리","664.","350814","32283","충청남도 홍성군 홍동면 광금남로699번길 22-33","(홍동면)","36.5636406383671","126.687673495767","041-663-3021","041-633-6373","http://poolmoo.cnehs.kr","남녀공학"
"충청남도교육청","충청남도교육청","충청남도 아산시","S120002836","여해학교","09","공립","","N","단설","주간","20130301","20130301","4420025033","충청남도 아산시 염치읍 백암리",".","","31451","충청남도 아산시 염치읍 현충사길 93","(염치읍,충무교육원)","36.8","127","041-539-5452","041-544-6326","http://yeohae.cnesc.kr","남녀공학"
"충청남도교육청","충청남도교육청","충청남도 천안시 동남구","S120002923","드림학교","10","사립","일반고등학교","N","단설","주간","20180416","20180402","4413111000","충청남도 천안시 동남구 삼룡동",".","","31071","충청남도 천안시 동남구 충절로 535-31","(삼룡동)","36.7","127.1","041-563-1934","041-563-1935","http://drim.caesc.kr","남녀공학"
"충청남도교육청","충청남도교육청","충청남도 아산시","S120002934","충남다사랑학교","10","공립","일반고등학교","N","단설","주간","20190901","20190901","4420036035","충청남도 아산시 둔포면 염작리",".","","31409","충청남도 아산시 둔포면 아산밸리동로 247","(둔포면)","36.916659","127.066986","041-427-3505","041-549-6692","http://cndalove.cnesc.kr/","남녀공학"
"충청남도교육청","충청남도교육청","충청남도 천안시 동남구","S120000247","천안중앙고등학교부설방송통신고등학교","11","공립","일반고등학교","N","부설","주간","19910110","19910110","4413110700","충청남도 천안시 동남구 원성동","460-1.","330070","31126","충청남도 천안시 동남구 충절로 91","(원성동,천안중앙고등학교)","36.8108763","127.1594663","041-563-3352","041-551-4335","","남녀공학"
"충청남도교육청","충청남도교육청","충청남도 홍성군","S120000273","홍성고등학교부설방송통신고등학교","11","공립","일반고등학교","N","부설","주간","19811211","19811211","4480025625","충청남도 홍성군 홍북읍 신경리","343-3.","350805","32264","충청남도 홍성군 홍북면 홍학로 49","(홍북면)","36.650125","126.672741","041-632-2610","041-633-8610","","남녀공학"
"충청남도교육청","충청남도천안교육지원청","충청남도 천안시 동남구","S120002914","천안중학교부설방송통신중학교","25","공립","","N","부설","주간","20180301","20180301","4413110700","충청남도 천안시 동남구 원성동",".","","31127","충청남도 천안시 동남구 충절로 90","(원성동)","36.8113328","127.1569533","041-567-0900","041-563-0243","http://www.cyber.ms.kr/user/index.do","남녀공학"
"충청남도교육청","충청남도홍성교육지원청","충청남도 홍성군","S120002926","홍성여자중학교부설방송통신중학교","25","공립","","N","부설","주간","20190309","20190301","4480025023","충청남도 홍성군 홍성읍 소향리",".","","32216","충청남도 홍성군 홍성읍 도청대로 29-21","(홍성읍)","36.6077848","126.6608044","041-632-2629","041-633-8830","http://honggs.cnems.kr","남녀공학"
"전라북도교육청","전라북도교육청","전라북도 전주시 완산구","S130000415","전주고등학교부설방송통신고등학교","11","공립","일반고등학교","N","부설","주간","19740323","19740323","4511112000","전라북도 전주시 완산구 중노송동","2가 488번지.","560100","55007","전라북도 전주시 완산구 권삼득로 2","(중노송동, 전주고등학교)","35.826187","127.151774","063-283-3050","063-282-6316","","남"
"전라북도교육청","전라북도교육청","전라북도 전주시 덕진구","S130000427","전주여자고등학교부설방송통신고등학교","11","공립","일반고등학교","N","부속","주간","19750406","19750406","4511310400","전라북도 전주시 덕진구 인후동2가","35번지.","561232","54927","전라북도 전주시 덕진구 모래내6길 14","(인후동2가,전주여자고등학교)","35.8358432","127.1460025","063-710-5500","063-710-5577","http://www.jjg.hs.kr","녀"
"전라북도교육청","전라북도전주교육지원청","전라북도 전주시 덕진구","S130002713","전라중학교부설방송통신중학교","25","공립","","N","단설","주간","20150314","20150314","4511310500","전라북도 전주시 덕진구 덕진동1가",".","","54894","전라북도 전주시 덕진구 들사평1길 39","(덕진동1가, 전라중학교)","35.8384634","127.122792","063-252-2758","063-275-6701","http://www.jeolla.ms.kr","남녀공학"
"전라남도교육청","전라남도함평교육지원청","전라남도 함평군","S140005584","월광기독학교","09","사립","","N","단설","주간","20150301","20150301","4686035025","전라남도 함평군 대동면 강운리",".","","57140","전라남도 함평군 대동면 함장로 1750-37",", 월광기독학교 (대동면)","35.0","126.5","061-895-0000","0618950099","http://wcs.ms.jne.kr","남녀공학"
"전라남도교육청","전라남도광양교육지원청","전라남도 광양시","S140005647","이음학교","09","공립","","","단설","주간","20200901","20200901","4623025030","전라남도 광양시 광양읍 용강리",".","","57749","전라남도 광양시 광양읍 제철로 59",", 이음학교","34.9555932","127.608188","061-761-1283","061-761-1217","https://jnsei.da.jne.kr/user/indexMain.action?siteId=jnseia_da","남녀공학"
"전라남도교육청","전라남도교육청","전라남도 강진군","S140005576","성요셉상호문화고등학교","10","사립","","N","단설","주간","20180301","20180301","4681025026","전라남도 강진군 강진읍 평동리",".","","59239","전라남도 강진군 강진읍 금릉2길 24",", 성요셉상호문화고등학교 (강진읍)","34.4","126.5","061-432-9240","061-433-5004","http://stjoseph.hs.jne.kr/","남녀공학"
"전라남도교육청","전라남도교육청","전라남도 함평군","S140005639","월광기독학교","10","사립","","N","단설","주간","20200301","20200301","4686035025","전라남도 함평군 대동면 강운리",".","","57140","전라남도 함평군 대동면 함장로 1750-37","(대동면, 학교법인월광학교)","35.093267","126.564920","061-895-0000","061-895-0099","http://","남녀공학"
"전라남도교육청","전라남도교육청","전라남도 담양군","S140005648","송강고등학교","10","공립","","","단설","주간","20210301","20210301","4671031000","전라남도 담양군 봉산면",".","","57372","전라남도 담양군 봉산면 송강정로 170","(봉산면)","35.25393","126.94827","061-380-5920","061-380-5949","http://songgang.hs.jne.kr","남녀공학"
"전라남도교육청","전라남도교육청","전라남도 목포시","S140000197","목포고등학교부설방송통신고등학교","11","공립","일반고등학교","N","부설","주간","19790214","19790301","4611010100","전라남도 목포시 용당동","970-6번지.","530361","58649","전라남도 목포시 산정로 224번길 11","(용당동)","34.808625","126.390975","061-800-7079","061-800-7099","www.mokpo.hs.kr","남녀공학"
"전라남도교육청","전라남도교육청","전라남도 순천시","S140000243","순천고등학교부설방송통신고등학교","11","공립","일반고등학교","N","부설","주간","19790407","19790224","4615011700","전라남도 순천시 인제동","80번지.","540160","57958","전라남도 순천시 우석로 191","(인제동)","34.9453199","127.4856308","061-759-7271","061-759-7277","http://suncheon.hs.jne.kr","남녀공학"
"전라남도교육청","전라남도순천교육지원청","전라남도 순천시","S140005554","순천연향중학교부설방송통신중학교","25","공립","","N","부속","주간","20160313","20150831","4615011400","전라남도 순천시 연향동",".","","57981","전라남도 순천시 연향중앙상가길 67","(연향동)","34.9478452","127.5207399","061-729-7691","061-721-0607","http://scyh.ms.jne.kr","남녀공학"
"전라남도교육청","전라남도목포교육지원청","전라남도 목포시","S140005555","목포중앙여자중학교부설방송통신중학교","25","공립","","N","부설","주간","20160312","20160312","4611015800","전라남도 목포시 상동",".","","58696","전라남도 목포시 백년대로280번길 24","(상동)","344805.3","1262509.1","061-283-0236","061-283-0215","http://mpjoongang.ms.jne.kr","남녀공학"
"경상북도교육청","경상북도경산교육지원청","경상북도 경산시","S150003799","영남삼육중학교","09","사립","","N","병설","주간","19521105","20020901","4729035032","경상북도 경산시 남산면 송내리","70번지.","712862","38572","경상북도 경산시 남산면 서원길 58-31","(남산면, 영남삼육중,고등학교)","35.787767","128.828937","053-852-3662","053-852-3669","http://school.gyo6.net/yn36ms","남녀공학"
"경상북도교육청","경상북도교육청","경상북도 문경시","S150006422","글로벌선진학교문경캠퍼스(중)","09","사립","","N","단설","주간","20110301","20110301","4728031000","경상북도 문경시 영순면","841-1.","745853","36941","경상북도 문경시 영순면 영순로 366","(영순면, 글로벌선진학교)","36.57605","128.243585","054-559-7000","054-559-7129","www.gvcs-mg.org","남녀공학"
"경상북도교육청","경상북도영천교육지원청","경상북도 영천시","S150006446","산자연중학교","09","사립","","N","단설","주간","20131123","20140301","4723034032","경상북도 영천시 화북면 오산리","775번지 .","770821","38813","경상북도 영천시 화북면 오공길 189","(화북면, 산자연중학교)","36.0802409","128.9239142","054-338-0530","054-338-0531","http://school.gyo6.net/sanjayeon","남녀공학"
"경상북도교육청","경상북도영천교육지원청","경상북도 영천시","S150006447","나무와중학교","09","사립","","N","단설","주간","20080907","20140301","4723040024","경상북도 영천시 대창면 어방리","나무와중학교.","770913","38913","경상북도 영천시 대창면 금창로 1095-60","(어방리, 나무와중학교)","35.86858330237","128.941214589113","054-337-2337","054-338-5654","http://school.gyo6.net/namuwa","남녀공학"
"경상북도교육청","경상북도교육청","경상북도 김천시","S150006511","링컨중고등학교(중)","09","사립","","N","병설","주간","20170403","20170403","4715044028","경상북도 김천시 대덕면 관기리",".","","39698","경상북도 김천시 대덕면 관기3길 129-505","(대덕면)","35.935972","127.950114","054-430-3865","054-430-3866","http://","남녀공학"
"경상북도교육청","경상북도교육청","경상북도 문경시","S150006419","글로벌선진학교문경캠퍼스","10","사립","일반고등학교","N","단설","주간","20110301","20110301","4728031000","경상북도 문경시 영순면","845-1.","745853","36941","경상북도 문경시 영순면 영순로 366","(영순면, 글로벌선진학교)","36.5771058496993","128.243217138582","054-559-7000","054-559-7129","www.gvcs-mg.org","남녀공학"
"경상북도교육청","경상북도교육청","경상북도 김천시","S150006510","링컨중고등학교","10","사립","","N","병설","주간","20170403","20170403","4715044028","경상북도 김천시 대덕면 관기리",".","","39698","경상북도 김천시 대덕면 관기3길 129-505","(대덕면)","35.935972","127.950114","054-430-3865","054-430-3866","http://lincolnmid.hs.kr","남녀공학"
"경상북도교육청","경상북도교육청","경상북도 경산시","S150006533","대경문화예술고등학교","10","사립","","N","부설","주간","20180301","20180301","4729033033","경상북도 경산시 자인면 단북리",".","","38547","경상북도 경산시 자인면 단북1길 65","(자인면)","35","128","053-850-1197","053-850-1196","http://www.dkcahs.co.kr","남녀공학"
"경상북도교육청","경상북도교육청","경상북도 구미시","S150000754","구미고등학교부설방송통신고등학교","11","공립","일반고등학교","N","부속","주간","19850301","19840301","4719010300","경상북도 구미시 도량동","600번지.","730020","39198","경상북도 구미시 문장로 42","(도량동,구미고등학교)","36.1373652","128.333403","054-452-9117","054-453-8673","","남녀공학"
"경상북도교육청","경상북도교육청","경상북도 김천시","S150000784","김천중앙고등학교부설방송통신고등학교","11","공립","일반고등학교","N","부설","주간","20020901","20020901","4715011900","경상북도 김천시 양천동","1153번지.","740060","39619","경상북도 김천시 남김천대로 3363","(양천동, 김천중앙고등학교)","36.0861844","128.1043047","054-435-4015","054-435-4014","","남녀공학"
"경상북도교육청","경상북도교육청","경상북도 안동시","S150000892","안동고등학교부설방송통신고등학교","11","공립","","N","부설","주간","19811211","19811211","4717013900","경상북도 안동시 정상동","산127-1번지.","760390","36753","경상북도 안동시 강남로 550","(정상동, 안동고등학교)","36.543825","128.760075","054-858-2945","054-858-2943","http://cyber.hs.kr/achs/andong/","남녀공학"
"경상북도교육청","경상북도교육청","경상북도 포항시 북구","S150000983","포항고등학교부설방송통신고등학교","11","공립","일반고등학교","N","부설","주간","20020901","19750119","4711311200","경상북도 포항시 북구 학산동","288.","791180","37713","경상북도 포항시 북구 아호로 50","(학산동, 포항고등학교)","36.0567371","129.3717485","054-613-4566","054-248-6288","","남녀공학"
"경상북도교육청","경상북도포항교육지원청","경상북도 포항시 북구","S150006527","포항중학교부설방송통신중학교","25","공립","","N","부설","주간","20180310","20180301","4711311200","경상북도 포항시 북구 학산동",".","","37719","경상북도 포항시 북구 학산로 45","(학산동)","36.050465","129.366887","054-614-1993","054-614-1992","http://school.gyo6.net/pohangms/","남녀공학"
"경상남도교육청","경상남도교육청","경상남도 창원시 마산합포구","S160000488","경남전자고등학교","08","사립","특성화고등학교","N","단설","주간","19630220","19630220","4812511900","경상남도 창원시 마산합포구 상남동","46-1.","631857","51273","경상남도 창원시 마산합포구 노산북6길 63",", 경남전자고등학교 (상남동)","35.215206","128.573183","055-246-7183","055-246-8300","http://kyeongnam-el-h.gne.go.kr","남"
"경상남도교육청","경상남도교육청","경상남도 진주시","S160003810","경남꿈키움중학교","09","공립","","N","단설","주간","20140301","20140301","4817037027","경상남도 진주시 이반성면 길성리","가산리 151-1.","660871","52615","경상남도 진주시 이반성면 길성길 1-80","(이반성면)","35.156019","128.321173","055-760-3820","055-760-3809","http://gnkkumkium-m.gne.go.kr/","남녀공학"
"경상남도교육청","경상남도교육청","경상남도 밀양시","S160003906","밀양영화고등학교","10","공립","","N","단설","주간","20170301","20170301","4827036024","경상남도 밀양시 상남면 평촌리",".","","50453","경상남도 밀양시 상남면 평촌중앙로 61-6","(상남면)","35.4","128.7","055-356-7307","055-356-7311","http://myyeonghwa-h.gne.go.kr","남녀공학"
"경상남도교육청","경상남도교육청","경상남도 고성군","S160003923","경남고성음악고등학교","10","공립","일반고등학교","N","단설","주간","20170501","20170301","4882032021","경상남도 고성군 하일면 학림리",".","","52956","경상남도 고성군 하일면 공룡로 987","(하일면)","34.9","128.1","055-672-4455","055-672-7474","http://gngseumak-h.gne.go.kr","남녀공학"
"경상남도교육청","경상남도교육청","경상남도 창원시 마산회원구","S160003976","창원예술학교","10","공립","","N","단설","주간","20180301","20180301","4812710100","경상남도 창원시 마산회원구 구암동",".","","51203","경상남도 창원시 마산회원구 구암북12길 24","(구암동)","35.2","128.6","055-252-9502","055-252-9506","http://cwarts-h.gne.go.kr","남녀공학"
"경상남도교육청","경상남도교육청","경상남도 거창군","S160003988","거창연극고등학교","10","공립","","N","단설","주간","20200201","20200301","4888035021","경상남도 거창군 위천면 장기리",".","","50103","경상남도 거창군 위천면 모동길 11-15","(위천면)","35.757623","127.834299","055-945-5010","055-945-5016","http://gths-h.gne.go.kr","남녀공학"
"경상남도교육청","경상남도교육청","경상남도 김해시","S160003989","금곡무지개고등학교","10","공립","","N","단설","주간","20200301","20200301","4825034032","경상남도 김해시 한림면 금곡리",".","","50847","경상남도 김해시 한림면 금곡로182번길 43","(한림면)","35.345120","128.812662","055-901-1000","055-346-3840","http://kgrb-h.gne.go.kr/","남녀공학"
"경상남도교육청","경상남도교육청","경상남도 남해군","S160003990","남해보물섬고등학교","10","공립","일반고등학교","","단설","주간","20210301","20210301","4884039026","경상남도 남해군 창선면 서대리",".","","52449","경상남도 남해군 창선면 서부로 1058-18","(창선면)","34.897291","127.994031","055-867-8732","055-867-8734","http://bomulseom-h.gne.go.kr/bomulseom-h/main.do","남녀공학"
"경상남도교육청","경상남도교육청","경상남도 창원시 마산합포구","S160000547","마산고등학교부설방송통신고등학교","11","공립","일반고등학교","N","부설","주간","19741231","19741231","4812512800","경상남도 창원시 마산합포구 완월동","27-3.","631150","51259","경상남도 창원시 마산합포구 심온길 33","(완월동, 마산고등학교 부설 방송통신고등학교)","35.2","128.5","055-240-3591","055-240-3505","http://cyber.hs.kr/masan/","남녀공학"
"경상남도교육청","경상남도교육청","경상남도 진주시","S160000661","진주고등학교부설방송통신고등학교","11","공립","일반고등학교","N","부설","주간","19750406","19750406","4817011400","경상남도 진주시 상봉동","987.","660050","52747","경상남도 진주시 의곡길 29","(상봉동,진주고등학교)","35.201002","128.080802","055-746-2613","055-746-5902","http://www.cyber.hs.kr","남녀공학"
"경상남도교육청","창원교육지원청","경상남도 창원시 성산구","S160003862","경원중학교부설방송통신중학교","25","공립","","N","단설","주간","20140309","20140309","4812312500","경상남도 창원시 성산구 중앙동","206.","642050","51519","경상남도 창원시 성산구 두대로 195","(중앙동, 경원중학교)","35.226064","128.663336","055-282-8307","055-263-9994","http://","남녀공학"
"경상남도교육청","진주교육지원청","경상남도 진주시","S160003885","진주중학교부설방송통신중학교","25","공립","","N","부설","주간","20150301","20150301","4817011400","경상남도 진주시 상봉동",".","","52750","경상남도 진주시 의곡길15번길 1","(평안동)","35.1991253","128.0808665","055-746-2248","055-742-4822","http://jinju.ms.kr","남녀공학"
"제주특별자치도교육청","제주특별자치도교육청","제주특별자치도 제주시","S170000155","제주제일고등학교부설방송통신고등학교","11","공립","일반고등학교","N","부설","주간","19750406","19741231","5011012200","제주특별자치도 제주시 노형동","810.","690707","63087","제주특별자치도 제주시 진군길 22","(노형동)","33.4800304","126.4795176","064-740-8200","064-740-8290","http://www.cyber.hs.kr","남녀공학"
"제주특별자치도교육청","제주시교육지원청","제주특별자치도 제주시","S170000870","제주제일중학교부설방송통신중학교","25","공립","","N","부설","주간","20160301","20160301","5011010400","제주특별자치도 제주시 이도이동",".","","63224","제주특별자치도 제주시 남광로 33","(이도이동)","33.495201","126.53885","064-750-3200","064-756-5977","http://jeil.jje.ms.kr","남녀공학"